[
  {
    "id": 1,
    "title": "Velodrom - Fritz-Riedel-Straße",
    "description": "Klassischer Berliner Parkour-Spot in Prenzlauer Berg: breite Treppen, Stufen und ein großer Vorplatz rund um die Radsporthalle. Auch fester Trainingsort von ParkourONE.",
    "lat": 52.529389,
    "lng": 13.450667,
    "zoom": 17.32,
    "challenges": [1, 2, 4, 5, 6, 8]
  },
  {
    "id": 2,
    "title": "Trace Space Anton-Saefkow-Park",
    "description": "Parkour-Spot im Anton-Saefkow-Park, von ParkourONE für Trainings genutzt. Ruhige Grünanlage mit Mauern, Stufen und Bewegungsflächen.",
    "lat": 52.5353,
    "lng": 13.4457,
    "zoom": 16.5,
    "challenges": [1, 2, 4, 5]
  },
  {
    "id": 3,
    "title": "Volkspark Friedrichshain",
    "description": "Beliebter Treffpunkt für Parkour mit vielen natürlichen Hindernissen: Treppen, Bänke, Mauern und Geländer. Viel Platz und unterschiedliche Schwierigkeitsgrade.",
    "lat": 52.528,
    "lng": 13.4362,
    "zoom": 16,
    "challenges": [1, 2, 5, 8]
  },
  {
    "id": 4,
    "title": "Tilla-Durieux-Park Potsdamer Platz",
    "description": "Bekannter Spot rund um das Kulturforum mit Treppen, Geländern und offenen Plätzen – urbane Architektur direkt am Potsdamer Platz.",
    "lat": 52.506186,
    "lng": 13.374879,
    "zoom": 16.5,
    "challenges": [1, 2, 3, 5, 8]
  },
  {
    "id": 5,
    "title": "Weinbergspark",
    "description": "Parkanlage in Mitte mit Hängen, Treppen und Mauern. Fester Trainingsort von ParkourONE, gut für Anfänger und Fortgeschrittene.",
    "lat": 52.532972,
    "lng": 13.402590,
    "zoom": 16.5,
    "challenges": [1, 2, 5, 7, 8]
  },
  {
    "id": 6,
    "title": "Brosepark Niederschönhausen",
    "description": "Ruhiger Park im Norden Berlins, von ParkourONE für Trainings genutzt. Grünanlage mit Wegen, Stufen und Bewegungsflächen.",
    "lat": 52.58381,
    "lng": 13.4056,
    "zoom": 16.5,
    "challenges": [1, 2, 4, 5, 8]
  },
  {
    "id": 7,
    "title": "Parkour-Anlage Gropiusstadt",
    "description": "Öffentliche, kostenlose Outdoor-Parkour-Anlage in Buckow/Neukölln, Teil der erneuerten Gropiusmeile am Wildmeisterdamm. Mauern, Stufen und Hindernisse für jedes Level.",
    "lat": 52.426501,
    "lng": 13.458307,
    "zoom": 16.5,
    "challenges": [1, 2, 4, 5, 8]
  },
  {
    "id": 8,
    "title": "Parkour-Anlage Sundi",
    "description": "Dedizierte Parkour-Anlage auf dem Campus Albert Schweitzer im Stadtpark Steglitz – beliebt bei Fitness- und Parkour-Fans.",
    "lat": 52.437104,
    "lng": 13.278364,
    "zoom": 16.5,
    "challenges": [1, 2, 4, 5, 8]
  },
  {
    "id": 9,
    "title": "Parkour-Insel Tempelhofer Feld",
    "description": "Parkour-Bereich auf dem weitläufigen ehemaligen Flughafengelände – viel Platz, freie Sicht und urbanes Flair.",
    "lat": 52.472877,
    "lng": 13.416275,
    "zoom": 16,
    "challenges": [1, 2, 4, 5, 8]
  },
  {
    "id": 10,
    "title": "PK Park Spandau - Spektesee",
    "description": "Kostenlose, öffentliche Outdoor-Anlage am Spektesee in Spandau – Fitness- und Parkour-Hotspot in naturnaher Lage am Wasser.",
    "lat": 52.549347,
    "lng": 13.166810,
    "zoom": 16.5,
    "challenges": [1, 2, 4, 5, 8]
  }
]